{"name":"Guggenheim Opportunity Fund","permalink":"guggenheim-opportunity-fund","crunchbase_url":"http://www.crunchbase.com/financial-organization/guggenheim-opportunity-fund","homepage_url":"http://www.guggenheimpartners.com","blog_url":"","blog_feed_url":"","twitter_username":null,"phone_number":"312.827.0120","description":null,"email_address":"brian.sir@guggenheimpartners.com","number_of_employees":null,"founded_year":null,"founded_month":null,"founded_day":null,"tag_list":"wealth-management, investment-managment, merchant-banking, capital-markets, family-office-services","alias_list":null,"created_at":"Thu Nov 22 19:39:02 UTC 2007","updated_at":"Mon Nov 17 10:06:56 UTC 2008","overview":"<p>Guggenheim Partners, LLC embodies a successful, century-old family tradition that emphasizes wealth preservation with sustainable capital growth.</p>\n\n<p>Their mission is to offer clients unparalleled service and performance through design and execution of financial services. They provide a sophisticated array of wealth and investment management services. Guggenheim Partners honors the high standards and achievements of their family history, to which they add modern expertise in wealth management, investment management, and capital markets services. </p>\n\n<p>Their approach to providing services to their clients differs in design and practice from that of other firms. They ground their service offerings in pioneering academic research and proven approaches to investment strategies. </p>\n\n<p>Their family history has shown repeatedly that talented, knowledgeable and experienced individuals make the difference in any line of business. As entrepreneurs and investors, they recognize how creative thinking and risk taking produce wealth. As investment professionals, they understand how to manage wealth prudently. As capital markets professionals, they understand how to assess, measure, and manage financial risk. As trustees and board members of foundations and endowments, they understand the unique financial challenges that confront these institutions. As stewards of the wealth of the Guggenheim family and other families and institutions, they know from experience the investment challenges associated with multi-generational wealth.</p>","image":{"available_sizes":[[[150,21],"assets/images/resized/0002/8731/28731v1-max-150x150.png"],[[200,29],"assets/images/resized/0002/8731/28731v1-max-250x250.png"],[[200,29],"assets/images/resized/0002/8731/28731v1-max-450x450.png"]],"attribution":null},"offices":[{"description":"","address1":"227 West Monroe","address2":"","zip_code":"60606","city":"Chicago","state_code":"IL","country_code":"USA","latitude":41.8806406,"longitude":-87.6345032},{"description":"","address1":"1301 McKinney","address2":"","zip_code":"77010 ","city":"Houston","state_code":"TX","country_code":"USA","latitude":29.7555,"longitude":-95.361602},{"description":"","address1":"135 East 57th Street ","address2":"","zip_code":"10022","city":"New York","state_code":"NY","country_code":"USA","latitude":40.7609671,"longitude":-73.9692353},{"description":"","address1":"1111 Brickell Avenue","address2":"","zip_code":"33131","city":"Miami","state_code":"FL","country_code":"USA","latitude":25.7630195,"longitude":-80.1914184},{"description":"","address1":"231 South Bemiston","address2":"","zip_code":"63105","city":"St. Louis ","state_code":"MO","country_code":"USA","latitude":38.642391,"longitude":-90.337933},{"description":"","address1":"100 Wilshire Boulevard","address2":"","zip_code":"90401","city":"Santa Monica","state_code":"CA","country_code":"USA","latitude":34.016838,"longitude":-118.500603},{"description":"","address1":"15821 Ventura Boulevard ","address2":"","zip_code":"91436","city":"Encino","state_code":"CA","country_code":"USA","latitude":34.156045,"longitude":-118.478161},{"description":"","address1":"Four Copley Place","address2":"","zip_code":"02116 ","city":"Boston","state_code":"MA","country_code":"USA","latitude":42.346743,"longitude":-71.0766318},{"description":"","address1":"1045 First Avenue  ","address2":"","zip_code":"19406 ","city":"King of Prussia","state_code":"PA","country_code":"USA","latitude":40.094469,"longitude":-75.409354},{"description":"","address1":"8, rue Saint-Leger","address2":"","zip_code":"1205 ","city":"Geneva","state_code":null,"country_code":"CHE","latitude":46.1976599,"longitude":6.1462625},{"description":"","address1":"One Exchange Square","address2":"8 Connaught Place","zip_code":"","city":"Central Hong Kong ","state_code":null,"country_code":"HKG","latitude":null,"longitude":null},{"description":"","address1":"68 King William Street ","address2":"","zip_code":"EC4N 7DZ ","city":"London","state_code":null,"country_code":"GBR","latitude":51.5109527,"longitude":-0.0867921},{"description":"","address1":"110 Wigmore Street","address2":"","zip_code":"W1U 3RW ","city":"London","state_code":null,"country_code":"GBR","latitude":51.5158538,"longitude":-0.1518645},{"description":"","address1":"South Dock House ","address2":"Hanover Quay","zip_code":"","city":"Dublin 2","state_code":null,"country_code":"IRL","latitude":53.3411138,"longitude":-6.2361421},{"description":"","address1":"P.O. Box 506587","address2":"Dubai International Financial Centre","zip_code":"","city":"Dubai","state_code":null,"country_code":"ARE","latitude":25.271139,"longitude":55.307485}],"relationships":[],"investments":[{"funding_round":{"round_code":"a","source_url":"","source_description":"","raised_amount":6500000,"raised_currency_code":"CAD","funded_year":2007,"funded_month":11,"funded_day":1,"company":{"name":"RedLasso","permalink":"redlasso","image":{"available_sizes":[[[150,54],"assets/images/resized/0001/8499/18499v1-max-150x150.png"],[[205,75],"assets/images/resized/0001/8499/18499v1-max-250x250.png"],[[205,75],"assets/images/resized/0001/8499/18499v1-max-450x450.png"]],"attribution":null}}}}],"milestones":[],"providerships":[],"funds":[],"video_embeds":[],"external_links":[]}